{
	"msg": "",
	"status": 0,
	"data": [
		{
			"address": "北京市丰台区丰科路6号万达广场六层万达影城（地铁9号线丰台科技园站C口",
			"cinema": {
				"cid": "124",
				"name": "北京丰台万达广场店",
				"shortname": "北京丰台店",
				"appshortname": "",
				"city": {
					"cid": "8022251040",
					"name": "北京",
					"firstletter": "B",
					"isgroupon": 0
				},
				"salestatus": 0,
				"lat": 39.824295,
				"lon": 116.298573,
				"tel": "010-83890606",
				"logo": {
					"name": "",
					"url": ""
				},
				"address": "北京市丰台区丰科路6号万达广场六层万达影城（地铁9号线丰台科技园站C口"
			}
		}, {
			"address": "北京市丰台区槐房南路6号院万达广场4层",
			"cinema": {
				"cid": "125",
				"name": "北京槐房万达广场店",
				"shortname": "北京槐房店",
				"appshortname": "",
				"city": {
					"cid": "8022251040",
					"name": "北京",
					"firstletter": "B",
					"isgroupon": 0
				},
				"salestatus": 0,
				"lat": 39.813853,
				"lon": 116.368294,
				"tel": "010-67966599",
				"logo": {
					"name": "",
					"url": ""
				},
				"address": "北京市丰台区槐房南路6号院万达广场4层"
			}
		}, {
			"address": "北京市朝阳区建国路93号万达电影城（针织路）",
			"cinema": {
				"cid": "304",
				"name": "北京CBD万达广场店",
				"shortname": "北京CBD店",
				"appshortname": "北京CBD",
				"city": {
					"cid": "8022251040",
					"name": "北京",
					"firstletter": "B",
					"isgroupon": 0
				},
				"salestatus": 0,
				"lat": 39.90927,
				"lon": 116.470631,
				"tel": "4000806060",
				"logo": {
					"name": "",
					"url": "https://images.wandafilm.com/uploadServer/resource/images/2011/03/20110331090458994701.jpg"
				},
				"address": "北京市朝阳区建国路93号万达电影城（针织路）"
			}
		}, {
			"address": "北京市昌平区立汤路186号龙德广场五层",
			"cinema": {
				"cid": "311",
				"name": "北京天通苑龙德广场店",
				"shortname": "北京天通苑店",
				"appshortname": "龙德店",
				"city": {
					"cid": "8022251040",
					"name": "北京",
					"firstletter": "B",
					"isgroupon": 0
				},
				"salestatus": 0,
				"lat": 40.060618,
				"lon": 116.416166,
				"tel": "010-84844742",
				"logo": {
					"name": "",
					"url": "https://images.wandafilm.com/uploadServer/resource/images/2011/03/20110331090347300423.jpg"
				},
				"address": "北京市昌平区立汤路186号龙德广场五层"
			}
		}, {
			"address": "石景山区石景山路乙18号万达广场娱乐3楼",
			"cinema": {
				"cid": "333",
				"name": "北京石景山万达广场店",
				"shortname": "北京石景山店",
				"appshortname": "石景山店",
				"city": {
					"cid": "8022251040",
					"name": "北京",
					"firstletter": "B",
					"isgroupon": 0
				},
				"salestatus": 0,
				"lat": 39.906025,
				"lon": 116.226589,
				"tel": "010-68663399",
				"logo": {
					"name": "",
					"url": "https://images.wandafilm.com/uploadServer/resource/images/2011/03/20110331090118502886.jpg"
				},
				"address": "石景山区石景山路乙18号万达广场娱乐3楼"
			}
		}, {
			"address": "北京市通州区新华西街58号万达广场1号楼5层",
			"cinema": {
				"cid": "849",
				"name": "北京通州万达广场店",
				"shortname": "北京通州店",
				"appshortname": "",
				"city": {
					"cid": "8022251040",
					"name": "北京",
					"firstletter": "B",
					"isgroupon": 0
				},
				"salestatus": 0,
				"lat": 39.904946,
				"lon": 116.638837,
				"tel": "4006090090",
				"logo": {
					"name": "",
					"url": ""
				},
				"address": "北京市通州区新华西街58号万达广场1号楼5层"
			}
		}
	]
}